City ID,City,Lat,Lng,Max Temp,Humidity,Cloudiness,Wind Speed,Country,Date
0,Zabul Province,32.25,67.25,36.01,62,100,5.12,AF,1643499952
1,Ushuaia,-54.8,-68.3,44.26,87,100,13.8,AR,1643499462
2,New Norfolk,-42.7826,147.0587,73.65,33,13,2.01,AU,1643499466
3,Tiksi,71.6872,128.8694,-9.49,98,56,4.25,RU,1643499261
4,Arlit,18.7369,7.3853,61.97,16,1,6.67,NE,1643499955
5,Rikitea,-23.1203,-134.9692,77.09,70,99,9.69,PF,1643499462
6,Kununurra,-15.7667,128.7333,82.38,83,75,10.36,AU,1643499887
7,Bud,39.447,-86.1758,25.68,67,64,5.73,US,1643499956
8,Mataura,-46.1927,168.8643,58.53,96,100,3.2,NZ,1643499469
9,Ozernovskiy,51.5,156.5167,25.39,90,100,21.88,RU,1643499957
10,Cherskiy,68.75,161.3,-25.91,99,71,2.26,RU,1643499765
11,Yumen,40.2833,97.2,11.53,67,0,7.65,CN,1643499957
12,Upernavik,72.7868,-56.1549,2.34,95,100,10.67,GL,1643499958
13,Flinders,-34.5833,150.8552,84.18,67,96,4.0,AU,1643499958
14,Alugan,12.2188,125.4808,78.19,91,35,4.59,PH,1643499958
15,Husavik,66.0449,-17.3389,33.71,79,65,17.54,IS,1643499959
16,Avarua,-21.2078,-159.775,82.45,78,63,12.66,CK,1643499481
17,Hermanus,-34.4187,19.2345,66.79,80,1,11.32,ZA,1643499472
18,Khatanga,71.9667,102.5,-5.49,98,100,7.38,RU,1643499492
19,Leningradskiy,69.3833,178.4167,-9.69,90,60,5.1,RU,1643499473
20,Kapaa,22.0752,-159.319,81.48,65,0,4.0,US,1643499471
21,Saint Anthony,45.0205,-93.218,27.14,67,0,1.99,US,1643499478
22,Coahuayana Viejo,18.7333,-103.6833,81.03,57,0,4.41,MX,1643499698
23,Hobart,-42.8794,147.3294,74.01,59,75,3.0,AU,1643499376
24,Jamestown,42.097,-79.2353,9.72,85,0,3.44,US,1643499290
25,Barrow,71.2906,-156.7887,-5.78,77,100,13.8,US,1643499973
26,São Filipe,14.8961,-24.4956,70.83,71,100,9.53,CV,1643499976
27,Geraldton,-28.7667,114.6,75.61,73,0,8.05,AU,1643499976
28,Kirillov,59.863,38.3813,5.09,100,100,4.97,RU,1643499977
29,Tuktoyaktuk,69.4541,-133.0374,-7.6,77,75,17.27,CA,1643499475
30,Illapel,-31.6308,-71.1653,65.77,72,0,5.5,CL,1643499977
31,Ancud,-41.8697,-73.8203,59.43,93,71,13.85,CL,1643499978
32,Saint George,37.1041,-113.5841,57.63,14,0,3.0,US,1643499983
33,Adrar,20.5022,-10.0711,75.36,12,100,9.78,MR,1643499983
34,Bluff,-46.6,168.3333,60.19,82,100,8.08,NZ,1643499984
35,Evensk,61.95,159.2333,19.11,78,100,10.98,RU,1643499984
36,Havøysund,70.9963,24.6622,22.08,73,94,5.82,NO,1643499984
37,Phan Thiet,10.9333,108.1,73.67,83,76,2.86,VN,1643499834
38,Bredasdorp,-34.5322,20.0403,66.27,88,3,2.3,ZA,1643499985
39,Lebu,-37.6167,-73.65,60.17,83,1,9.33,CL,1643499969
40,Yingkou,40.6648,122.2283,16.9,52,0,2.15,CN,1643499986
41,Caravelas,-17.7125,-39.2481,78.87,83,0,10.38,BR,1643499986
42,Fortuna,40.5982,-124.1573,59.86,80,0,1.01,US,1643499986
43,Nanortalik,60.1432,-45.2371,20.77,69,100,26.37,GL,1643499478
44,Dikson,73.5069,80.5464,7.09,94,99,20.07,RU,1643499477
45,Bethel,41.3712,-73.414,19.29,60,100,5.99,US,1643499852
46,Kahului,20.8947,-156.47,84.22,52,20,17.27,US,1643499987
47,Vaini,-21.2,-175.2,81.64,77,100,12.75,TO,1643499460
48,Matadi,-5.8167,13.45,76.89,94,100,1.72,CD,1643499988
49,Alice Springs,-23.7,133.8833,78.35,89,100,14.97,AU,1643499912
50,Batagay-Alyta,67.8006,130.4114,-20.81,96,69,4.81,RU,1643499989
51,Samarai,-10.6167,150.6667,81.14,75,100,6.64,PG,1643500049
52,Biak,-0.9131,122.8766,80.49,70,99,2.21,ID,1643500049
53,Punta Arenas,-53.15,-70.9167,51.91,50,75,13.8,CL,1643499464
54,Pitimbu,-7.4706,-34.8086,77.59,80,74,7.54,BR,1643500050
55,Albany,42.6001,-73.9662,10.63,62,100,10.0,US,1643499909
56,Ponta Delgada,37.7333,-25.6667,58.5,72,40,3.44,PT,1643500050
57,Kiama,-34.6833,150.8667,84.38,68,94,5.01,AU,1643500051
58,Oparino,59.8518,48.2783,8.76,96,99,5.44,RU,1643500052
59,Torbay,47.6666,-52.7314,35.28,96,100,21.85,CA,1643499475
60,Kisi,9.0833,3.85,74.48,18,83,4.97,NG,1643500052
61,Thompson,55.7435,-97.8558,-5.64,84,20,0.0,CA,1643499471
62,Linqu,36.5156,118.5397,28.02,40,0,1.97,CN,1643500052
63,Provideniya,64.3833,-173.3,4.68,86,10,3.29,RU,1643500053
64,Te Anau,-45.4167,167.7167,57.36,94,100,0.27,NZ,1643500053
65,Impfondo,1.6381,18.0667,71.47,36,35,1.74,CG,1643500054
66,Olafsvik,64.8945,-23.7142,38.07,63,100,25.52,IS,1643500054
67,Bariloche,-41.1456,-71.3082,65.95,39,40,25.32,AR,1643500054
68,Praia,14.9215,-23.5087,70.34,68,75,13.8,CV,1643500055
69,Shubarkuduk,49.1447,56.4872,12.6,96,100,5.79,KZ,1643500055
70,Nome,64.5011,-165.4064,-9.33,64,0,3.44,US,1643500056
71,Holbæk,55.7167,11.7167,42.08,74,91,37.0,DK,1643500056
72,Ojinaga,29.5667,-104.4167,63.57,41,0,0.0,MX,1643499493
73,Bedford,52.1346,-0.4663,44.31,75,21,12.03,GB,1643500056
74,Coquimbo,-29.9533,-71.3436,65.93,77,40,12.66,CL,1643500057
75,Puerto Ayora,-0.7393,-90.3518,74.93,76,26,6.6,EC,1643499317
76,Qaanaaq,77.484,-69.3632,4.3,83,100,9.69,GL,1643499474
77,Butaritari,3.0707,172.7902,82.51,71,54,18.99,KI,1643499477
78,Manta,-0.95,-80.7333,78.58,83,75,3.44,EC,1643500057
79,Saint Paul Harbor,57.79,-152.4072,35.11,55,0,21.85,US,1643500058
80,Pacific Grove,36.6177,-121.9166,69.48,54,0,1.01,US,1643500058
81,Saint-Philippe,-21.3585,55.7679,74.79,85,47,10.69,RE,1643499470
82,Lavrentiya,65.5833,-171.0,-1.37,83,2,3.74,RU,1643499486
83,Kavieng,-2.5744,150.7967,83.59,72,100,5.66,PG,1643500059
84,Novikovo,51.1537,37.8879,22.96,95,99,10.25,RU,1643500059
85,Coyhaique,-45.5752,-72.0662,54.21,76,75,6.91,CL,1643499778
86,Maragogi,-9.0122,-35.2225,76.17,79,99,4.68,BR,1643500059
87,Port Alfred,-33.5906,26.891,68.9,87,35,9.06,ZA,1643500060
88,Bilibino,68.0546,166.4372,-1.86,87,100,2.62,RU,1643500060
89,Cape Town,-33.9258,18.4232,68.41,70,0,7.0,ZA,1643499434
90,Port Hardy,50.6996,-127.4199,47.75,87,100,18.41,CA,1643500061
91,Atuona,-9.8,-139.0333,77.72,79,13,11.43,PF,1643500061
92,Kanniyākumāri,8.0833,77.5667,77.56,81,28,16.42,IN,1643500061
93,Peace River,56.2501,-117.286,32.31,80,100,4.61,CA,1643500062
94,Marawi,7.9986,124.2928,67.64,88,93,1.21,PH,1643500062
95,Matagami,49.7502,-77.6328,3.31,85,100,9.22,CA,1643500056
96,Launceston,-41.45,147.1667,71.62,61,1,7.0,AU,1643500062
97,Ribeira Grande,38.5167,-28.7,58.86,73,35,5.66,PT,1643500063
98,Portel,-1.9356,-50.8211,72.48,97,100,2.71,BR,1643500063
99,Bataiporã,-22.2953,-53.2711,71.49,95,21,2.75,BR,1643500064
100,Busselton,-33.65,115.3333,71.04,72,11,13.89,AU,1643499466
101,Meulaboh,4.1363,96.1285,75.52,91,63,5.06,ID,1643500064
102,Cabadiangan,9.7531,122.4739,80.83,78,33,2.8,PH,1643500124
103,Belyy Yar,53.6039,91.3903,-18.51,69,40,0.0,RU,1643500125
104,Krasnosel'kup,65.7,82.4667,-14.46,99,99,8.3,RU,1643500125
105,Banda Aceh,5.5577,95.3222,79.02,77,90,5.06,ID,1643500125
106,Solwezi,-12.1688,26.3894,61.93,98,100,4.56,ZM,1643500126
107,Castro,-24.7911,-50.0119,59.81,99,100,6.91,BR,1643500126
108,George Town,5.4112,100.3354,80.89,91,20,0.0,MY,1643500126
109,Songjianghe,42.1859,127.479,3.72,83,6,5.17,CN,1643500127
110,Cayenne,4.9333,-52.3333,79.09,86,0,0.0,GF,1643500127
111,Pauini,-7.7136,-66.9764,73.8,98,94,0.78,BR,1643500128
112,Lüderitz,-26.6481,15.1594,67.44,78,74,7.54,NA,1643500128
113,Mirwah,13.9228,43.9176,63.82,80,62,2.33,YE,1643500128
114,Menfi,37.6066,12.9678,52.18,78,24,8.25,IT,1643500129
115,Yueyang,29.3333,113.0919,33.44,91,41,4.56,CN,1643500129
116,Parkersburg,39.2667,-81.5615,20.01,38,0,3.44,US,1643499894
117,Ocós,14.5094,-92.1933,82.9,70,41,7.38,GT,1643500129
118,Nikolskoye,59.7035,30.7861,27.72,87,100,16.28,RU,1643500130
119,Hambantota,6.1241,81.1185,77.79,82,78,7.54,LK,1643500130
120,Hong Kong,22.2855,114.1577,58.24,81,80,1.01,HK,1643499957
121,Cam Ranh,11.9214,109.1591,73.36,88,20,1.14,VN,1643500131
122,Hilo,19.7297,-155.09,82.13,52,40,10.36,US,1643499946
123,Isangel,-19.55,169.2667,78.91,94,90,10.36,VU,1643500131
124,Ismailia,30.6043,32.2723,52.32,69,65,7.11,EG,1643499870
125,Pevek,69.7008,170.3133,-17.34,99,95,3.71,RU,1643500132
126,Bambous Virieux,-20.3428,57.7575,79.05,78,40,6.91,MU,1643500132
127,Kavaratti,10.5669,72.642,80.42,74,54,8.3,IN,1643500132
128,Oak Ridge,36.0104,-84.2696,29.43,46,5,1.01,US,1643499846
129,Shellbrook,53.2168,-106.4011,16.83,98,30,4.68,CA,1643500133
130,East London,-33.0153,27.9116,69.28,86,67,7.05,ZA,1643500013
131,Teya,60.3778,92.6267,-0.92,100,99,2.68,RU,1643500133
132,Vila Velha,-20.3297,-40.2925,79.95,85,20,8.01,BR,1643500020
133,Puerto Escondido,15.85,-97.0667,80.58,68,0,3.49,MX,1643500134
134,Hasaki,35.7333,140.8333,39.29,55,67,19.89,JP,1643500134
135,Saravan,39.7196,45.6483,12.85,89,79,6.15,AM,1643500134
136,Norman Wells,65.282,-126.8329,-25.56,68,75,0.0,CA,1643500135
137,Waipawa,-41.4122,175.5153,72.23,44,36,9.04,NZ,1643500135
138,Kulhudhuffushi,6.6221,73.07,81.97,74,97,17.92,MV,1643500136
139,Marsabit,2.3284,37.9899,66.83,59,28,7.81,KE,1643500136
140,Dingle,10.9995,122.6711,79.03,83,11,1.21,PH,1643500136
141,Emerald,-23.5333,148.1667,84.34,54,13,10.36,AU,1643500137
142,Mahébourg,-20.4081,57.7,79.09,78,40,6.91,MU,1643500138
143,Malé,4.1748,73.5089,82.35,74,75,6.91,MV,1643500138
144,Osmeña,10.5208,119.9258,79.7,79,13,2.51,PH,1643500139
145,Waingapu,-9.6567,120.2641,81.95,76,100,11.54,ID,1643500139
146,Hithadhoo,-0.6,73.0833,80.82,68,76,3.85,MV,1643500139
147,Nizhniy Tsasuchey,50.5167,115.1333,-13.61,96,14,5.59,RU,1643500139
148,Ko Samui,9.5357,99.9357,80.89,75,17,8.12,TH,1643500140
149,Saldanha,-33.0117,17.9442,64.45,84,0,13.91,ZA,1643500140
150,Mar del Plata,-38.0023,-57.5575,78.82,47,0,6.91,AR,1643500140
151,Faanui,-16.4833,-151.75,80.76,71,18,8.19,PF,1643500141
152,Santarém,-2.4431,-54.7083,77.13,94,75,10.36,BR,1643500091
153,Cidreira,-30.1811,-50.2056,71.65,63,32,12.3,BR,1643500201
154,Katsuura,35.1333,140.3,44.19,61,64,18.21,JP,1643500202
155,Standerton,-26.9337,29.2415,60.62,85,98,7.83,ZA,1643500202
156,Vao,-22.6667,167.4833,79.39,85,61,13.91,NC,1643500203
157,Inverell,-29.7833,151.1167,84.67,55,33,4.0,AU,1643500203
158,Airai,-8.9266,125.4092,64.87,83,100,3.71,TL,1643500203
159,Chui,-33.6971,-53.4616,66.6,77,12,8.01,UY,1643500204
160,Lithakia,37.7167,20.8333,45.77,66,64,21.18,GR,1643500204
161,Baryshivka,50.361,31.3217,29.26,89,100,12.62,UA,1643500205
162,Henties Bay,-22.116,14.2845,61.86,83,46,3.18,NA,1643500205
163,Mackay,-21.15,149.2,83.68,78,37,13.8,AU,1643500205
164,Aquiraz,-3.9014,-38.3911,79.18,83,94,8.05,BR,1643500208
165,Saskylakh,71.9167,114.0833,-20.06,100,99,3.44,RU,1643500208
166,Coruripe,-10.1256,-36.1756,77.31,66,100,8.32,BR,1643500209
167,Iqaluit,63.7506,-68.5145,-11.47,64,75,8.05,CA,1643500209
168,Mount Darwin,-16.7725,31.5838,66.31,98,100,1.99,ZW,1643500210
169,Puerto Baquerizo Moreno,-0.9,-89.6,74.66,81,27,7.99,EC,1643500210
170,Boa Vista,2.8197,-60.6733,84.18,51,20,8.05,BR,1643500211
171,Narrabri,-30.3167,149.7833,83.52,60,52,2.21,AU,1643500211
172,Okhotsk,59.3833,143.3,13.15,79,99,15.97,RU,1643500212
173,Gore,-46.1028,168.9436,57.54,97,100,3.38,NZ,1643500212
174,Umluj,25.0213,37.2685,61.7,49,0,11.83,SA,1643500212
175,Zunyi,27.6867,106.9072,33.39,92,81,3.56,CN,1643500213
176,Pangody,65.85,74.4859,-6.74,96,98,8.68,RU,1643500213
177,Touros,-5.1989,-35.4608,77.9,82,85,9.66,BR,1643500213
178,Esperance,-33.8667,121.9,69.64,59,0,9.89,AU,1643500214
179,Tasiilaq,65.6145,-37.6368,9.34,77,99,5.97,GL,1643500214
180,Mogadishu,2.0371,45.3438,76.91,79,49,19.1,SO,1643500214
181,Southampton,50.904,-1.4043,43.65,81,20,1.01,GB,1643499952
182,Guabito,9.5,-82.6167,74.66,82,58,3.29,PA,1643500215
183,Lompoc,34.6391,-120.4579,71.08,51,0,11.5,US,1643500216
184,Uvalde,29.3669,-99.767,63.55,20,0,6.91,US,1643500216
185,Cabo San Lucas,22.8909,-109.9124,77.61,55,10,4.0,MX,1643500217
186,Ariquemes,-9.9133,-63.0408,72.07,99,100,2.89,BR,1643500218
187,Palimbang,6.2106,124.1894,81.46,74,79,1.23,PH,1643500219
188,Ridgecrest,35.6225,-117.6709,59.47,12,0,0.0,US,1643500220
189,Wojkowice,50.3651,19.0365,40.28,93,75,10.0,PL,1643500220
190,Chokurdakh,70.6333,147.9167,-11.02,86,100,1.3,RU,1643500220
191,Haines Junction,60.7522,-137.5108,13.95,67,100,11.5,CA,1643500221
192,Petropavlovsk-Kamchatskiy,53.0452,158.6483,23.59,80,75,2.24,RU,1643500221
193,Bowen,-20.0167,148.2333,84.42,60,8,10.83,AU,1643500221
194,Carnarvon,-24.8667,113.6333,78.87,83,75,10.36,AU,1643500221
195,Buluang,13.3068,123.3425,79.68,84,36,2.64,PH,1643500222
196,Padang,-0.9492,100.3543,75.25,92,95,5.17,ID,1643500222
197,Arraial do Cabo,-22.9661,-42.0278,73.96,95,87,13.24,BR,1643500222
198,Mokhsogollokh,61.4681,128.9203,-28.53,100,93,3.13,RU,1643500223
199,Richards Bay,-28.783,32.0377,69.76,86,31,0.54,ZA,1643500223
200,Bengkulu,-3.8004,102.2655,76.26,90,100,4.14,ID,1643500223
201,Werda,-25.2667,23.2833,72.23,70,81,12.73,BW,1643500224
202,Severo-Kuril'sk,50.6789,156.125,24.87,82,96,17.74,RU,1643500229
203,Kumul,42.8,93.45,20.07,44,1,4.14,CN,1643500229
204,Kirakira,-10.4544,161.9205,84.42,75,100,10.49,SB,1643500290
205,Burnie,-41.0667,145.9167,72.95,62,51,4.97,AU,1643500290
206,Zhezkazgan,47.8043,67.7144,9.01,97,76,8.88,KZ,1643500290
207,Tevaitoa,-16.7833,-151.5,79.79,75,25,9.8,PF,1643500291
208,Mtwara,-10.2667,40.1833,75.51,90,100,7.63,TZ,1643500291
209,Kathmandu,27.7167,85.3167,39.42,93,20,2.3,NP,1643500127
210,Portland,45.5234,-122.6762,54.37,54,75,1.01,US,1643500197
211,Clyde River,70.4692,-68.5914,-7.37,64,100,11.5,CA,1643500292
212,Savinka,50.0785,47.0994,32.83,98,100,17.05,RU,1643500292
213,Miles City,46.4083,-105.8406,40.17,48,0,8.05,US,1643500292
214,Morondava,-20.2833,44.2833,78.31,83,0,6.87,MG,1643500293
215,Souillac,-20.5167,57.5167,79.18,78,40,6.91,MU,1643500293
216,Behbahān,30.5959,50.2417,49.32,52,64,2.77,IR,1643500293
217,Prado,-17.3411,-39.2208,78.51,84,1,12.37,BR,1643500294
218,Yerbogachën,61.2767,108.0108,-8.36,98,92,3.22,RU,1643500294
219,Krumovgrad,41.4667,25.65,37.04,78,21,1.83,BG,1643500295
220,North Las Vegas,36.1989,-115.1175,63.84,11,0,3.44,US,1643500296
221,Lorengau,-2.0226,147.2712,84.33,71,87,7.34,PG,1643500296
222,Sola,-13.8833,167.55,82.69,78,90,19.1,VU,1643500297
223,Sechura,-5.5569,-80.8222,75.52,67,46,13.51,PE,1643500297
224,Kożuchów,51.7456,15.5949,43.66,66,96,27.25,PL,1643500297
225,Faya,18.3851,42.4509,53.71,83,1,5.75,SA,1643500298
226,Itarema,-2.9248,-39.9167,78.66,73,98,9.75,BR,1643500299
227,Laguna,38.421,-121.4238,66.49,41,0,3.0,US,1643500299
228,Ishigaki,24.3448,124.1572,64.53,94,75,13.8,JP,1643500300
229,Codrington,-38.2667,141.9667,69.03,82,94,8.21,AU,1643500300
230,Ampanihy,-24.7,44.75,67.46,97,4,5.68,MG,1643500300
231,Morant Bay,17.8815,-76.4093,80.22,78,27,4.83,JM,1643500301
232,Kloulklubed,7.0419,134.2556,81.82,77,87,11.52,PW,1643500301
233,Gurlan,41.8447,60.3919,21.11,84,5,6.13,UZ,1643500301
234,Mehamn,71.0357,27.8492,15.82,88,91,4.16,NO,1643500302
235,Sokolo,14.7328,-6.1219,76.59,14,3,13.24,ML,1643500302
236,Marsá Maţrūḩ,31.3525,27.2453,52.0,66,40,9.22,EG,1643500302
237,Guerrero Negro,27.9769,-114.0611,66.6,33,49,12.3,MX,1643500303
238,Baykit,61.67,96.37,-10.52,100,98,1.52,RU,1643500303
239,Durban,-29.8579,31.0292,72.01,92,92,3.0,ZA,1643500005
240,Qui Nhon,13.7667,109.2333,71.89,87,96,5.82,VN,1643500303
241,Port Elizabeth,-33.918,25.5701,66.49,88,0,8.05,ZA,1643500304
242,Beruwala,6.4788,79.9828,77.79,79,61,0.89,LK,1643500304
243,Tongren,27.7172,109.1853,35.69,92,90,0.65,CN,1643500304
244,Kyrylivka,46.3759,35.3675,32.22,80,60,15.55,UA,1643500305
245,Wattegama,6.7989,81.4808,72.61,94,47,2.17,LK,1643500305
246,Rio Grande,-32.035,-52.0986,71.94,65,0,13.33,BR,1643500305
247,Rocha,-34.4833,-54.3333,64.74,80,2,7.43,UY,1643500306
248,Ust-Kuyga,70.0167,135.6,-33.61,100,99,6.96,RU,1643500306
249,Nizwá,22.9333,57.5333,64.99,46,2,1.43,OM,1643500307
250,Berdigestyakh,62.0989,126.6992,-23.8,100,100,2.48,RU,1643500307
251,Billings Metropolitan Area,45.7833,-108.5007,51.57,17,75,14.97,US,1643500238
252,Yellowknife,62.456,-114.3525,-10.44,77,75,9.22,CA,1643500049
253,College,64.8569,-147.8028,-6.0,71,40,0.0,US,1643500308
254,La Ronge,55.1001,-105.2842,10.65,72,100,3.44,CA,1643500309
255,São José da Coroa Grande,-8.8978,-35.1478,76.37,80,99,4.34,BR,1643500369
256,San Miguelito,9.0333,-79.5,80.04,71,40,1.99,PA,1643500371
257,Acapulco de Juárez,16.8634,-99.8901,81.68,68,8,10.18,MX,1643500316
258,Hobyo,5.3505,48.5268,75.6,75,39,19.15,SO,1643500381
259,Shiraz,29.6036,52.5388,36.84,93,40,0.0,IR,1643500097
260,Dharmadam,11.7833,75.4333,74.46,76,6,3.8,IN,1643500381
261,Naze,28.3667,129.4833,56.32,76,98,12.68,JP,1643500389
262,Barabai,-2.5833,115.3833,76.75,81,97,0.74,ID,1643500389
263,Balkanabat,39.5108,54.3671,40.28,62,3,2.68,TM,1643500390
264,Buin,-33.7333,-70.75,75.52,67,0,5.91,CL,1643500391
265,Sidi Ali,36.0998,0.4206,49.24,39,0,7.83,DZ,1643500392
266,Esim,4.8699,-2.2405,79.25,89,84,5.01,GH,1643500393
267,Sergeevka,53.88,67.4158,3.33,97,100,6.06,KZ,1643500394
268,Nagykáta,47.4151,19.7441,39.33,81,100,18.48,HU,1643500394
269,Constitución,-35.3333,-72.4167,59.09,92,44,7.87,CL,1643500394
270,Athabasca,54.7169,-113.2854,27.86,89,78,4.83,CA,1643500395
271,Wamba,8.9333,8.6,68.16,20,97,4.5,NG,1643500395
272,Salalah,17.0151,54.0924,68.45,63,22,2.01,OM,1643500396
273,Nantucket,41.2835,-70.0995,26.71,80,100,32.21,US,1643500396
274,Vostochnyy,55.8167,37.8667,23.27,99,91,3.2,RU,1643500396
275,Saint-Pierre,-21.3393,55.4781,76.68,73,11,3.44,RE,1643500397
276,Koumac,-20.5667,164.2833,83.64,72,64,6.49,NC,1643500397
277,Khilok,51.3674,110.4676,-18.29,99,85,2.21,RU,1643500397
278,Puerto del Rosario,28.5004,-13.8627,64.08,77,0,8.05,ES,1643500398
279,Tokur,53.1333,132.9,-21.78,98,97,1.77,RU,1643500398
280,Satara,17.6833,73.9833,59.59,41,52,0.74,IN,1643500398
281,Cockburn Town,21.4612,-71.1419,78.76,69,40,9.22,TC,1643500399
282,Awjilah,29.1081,21.2869,53.62,40,21,16.53,LY,1643500399
283,Erechim,-27.6342,-52.2739,64.44,89,80,5.61,BR,1643500407
284,Abu Dhabi,24.4667,54.3667,66.96,79,0,1.14,AE,1643500340
285,Cancún,21.1743,-86.8466,68.05,64,91,12.3,MX,1643500234
286,Zaysan,47.4667,84.8667,-4.99,87,100,2.66,KZ,1643500407
287,Mokrousovo,55.8103,66.7653,5.7,92,100,5.79,RU,1643500408
288,Yangi Marg`ilon,40.4272,71.7189,34.52,93,75,6.91,UZ,1643500408
289,Beringovskiy,63.05,179.3167,-9.04,99,93,2.46,RU,1643500418
290,Bubaque,11.2833,-15.8333,78.98,69,93,16.69,GW,1643500419
291,Ampére,-25.915,-53.4728,66.54,83,100,6.22,BR,1643500419
292,Zhigansk,66.7697,123.3711,-32.55,100,99,3.13,RU,1643500419
293,Raudeberg,61.9875,5.1352,41.2,82,100,11.01,NO,1643500420
294,Caşin,46.2,26.75,34.81,70,70,6.8,RO,1643500423
295,Nísia Floresta,-6.0911,-35.2086,79.18,83,99,6.64,BR,1643500423
296,Inta,66.0317,60.1659,8.69,84,99,8.3,RU,1643500424
297,Tuatapere,-46.1333,167.6833,58.96,93,100,4.63,NZ,1643500424
298,Oksovskiy,62.6062,39.8984,5.2,98,100,5.48,RU,1643500425
299,Tāybād,34.74,60.7756,37.29,77,0,3.15,IR,1643500425
300,Anandnagar,27.1,83.2833,46.58,84,0,6.53,IN,1643500426
301,Praia da Vitória,38.7333,-27.0667,59.25,82,75,11.63,PT,1643500426
302,Bayir,37.2687,28.2167,43.32,79,100,5.12,TR,1643500427
303,Ferrandina,40.5012,16.4547,39.97,69,5,8.48,IT,1643500427
304,Lagoa,39.05,-27.9833,58.42,73,59,15.01,PT,1643500428
305,Yar-Sale,66.8333,70.8333,-10.05,98,86,8.7,RU,1643500429
306,Bathsheba,13.2167,-59.5167,77.61,73,40,17.27,BB,1643500493
307,Baker City,44.7749,-117.8344,30.6,77,57,4.38,US,1643500493
308,Nouakchott,18.0858,-15.9785,67.93,65,100,15.75,MR,1643500494
309,Yevlax,40.6089,47.1492,30.42,41,24,14.63,AZ,1643500494
310,Tekirdağ,40.978,27.5085,33.15,82,65,5.61,TR,1643500495
311,Inírida,3.8653,-67.9239,77.63,56,81,0.63,CO,1643500495
312,Nelson Bay,-32.7167,152.15,82.29,68,94,1.99,AU,1643500496
313,Lata,40.1629,-8.3327,48.72,52,0,5.5,PT,1643500496
314,Salinópolis,-0.6136,-47.3561,75.61,89,100,5.79,BR,1643500497
315,Aketi,2.7388,23.7833,66.65,39,2,2.3,CD,1643500497
316,Saint-Joseph,-21.3667,55.6167,75.58,82,24,11.36,RE,1643500498
317,Whitehorse,60.7161,-135.0538,23.09,78,75,5.99,CA,1643500498
318,Dolores,-36.3132,-57.6792,67.87,70,76,8.28,AR,1643500498
319,San Patricio,28.017,-97.5169,65.08,39,59,10.02,US,1643500499
320,Taylor,32.3001,-99.8337,63.86,17,0,17.27,US,1643500500
321,Kolpashevo,58.3131,82.9089,-4.31,100,100,4.59,RU,1643500501
322,Powell,40.1578,-83.0752,16.68,74,100,1.01,US,1643500502
323,Jalpan,21.2333,-99.4833,53.17,85,90,2.64,MX,1643500502
324,Belmonte,-15.8631,-38.8828,79.3,82,39,10.02,BR,1643500502
325,Kristiansund,63.1115,7.732,41.65,87,100,37.98,NO,1643500502
326,Fairbanks,64.8378,-147.7164,-5.98,72,40,0.0,US,1643500203
327,Poum,-20.2333,164.0167,81.79,76,52,8.5,NC,1643500503
328,Ucluelet,48.9329,-125.5528,43.11,91,100,1.99,CA,1643500503
329,Port Keats,-14.25,129.55,82.76,81,100,19.08,AU,1643500503
330,Dulce Nombre de Culmí,15.1,-85.5333,84.43,84,71,4.34,HN,1643500504
331,Sīrjān,29.452,55.6814,44.28,54,6,7.4,IR,1643500504
332,Kamennomostskoye,43.7372,43.0514,25.68,69,100,7.72,RU,1643500504
333,Valparaíso,-33.0393,-71.6273,71.83,60,0,11.5,CL,1643500360
334,Yenagoa,4.9247,6.2642,73.63,73,12,1.63,NG,1643500505
335,Conceição do Araguaia,-8.2578,-49.2647,71.98,95,91,3.85,BR,1643500505
336,Guatire,10.4762,-66.5427,82.9,92,55,2.39,VE,1643500506
337,Somerset,40.5668,-74.5496,19.81,54,100,1.01,US,1643500506
338,Kiryat Gat,31.61,34.7642,49.41,100,0,2.59,IL,1643500506
339,Nakamura,32.9833,132.9333,42.57,65,100,3.15,JP,1643500507
340,Rawson,-43.3002,-65.1023,79.39,32,73,12.71,AR,1643500507
341,Sabang,5.8933,95.3214,81.95,70,66,8.23,ID,1643500507
342,Jumla,29.2747,82.1838,31.12,43,0,4.97,NP,1643500509
343,Pitmoaga,12.2397,-1.8767,73.02,16,32,10.94,BF,1643500509
344,Kumluca,36.3703,30.2869,45.68,67,100,6.51,TR,1643500510
345,Longyearbyen,78.2186,15.6401,8.44,66,0,16.11,SJ,1643500510
346,Madimba,-10.4,40.3333,75.27,91,100,5.39,TZ,1643500510
347,Pontianak,-0.0333,109.3333,76.98,94,40,2.3,ID,1643500510
348,Abirāmam,9.4667,78.45,75.2,78,57,10.42,IN,1643500511
349,Sisimiut,66.9395,-53.6735,6.6,80,100,28.52,GL,1643500511
350,Rostovka,55.3842,71.8891,2.88,87,100,8.75,RU,1643500511
351,Mount Gambier,-37.8333,140.7667,69.71,78,100,10.36,AU,1643500512
352,Dahuk,36.8695,42.994,36.25,77,99,4.43,IQ,1643500512
353,Puntarenas,9.9763,-84.8384,87.73,68,28,6.55,CR,1643500512
354,Alofi,-19.0595,-169.9187,85.89,70,93,6.91,NU,1643500513
355,Newport,51.5877,-2.9984,43.86,88,26,6.2,GB,1643500513
356,Marsh Harbour,26.5412,-77.0636,60.08,60,49,25.88,BS,1643500523
357,Viedma,-40.8135,-62.9967,78.1,49,23,8.77,AR,1643500584
358,Sørland,67.667,12.6934,35.67,60,100,25.3,NO,1643500584
359,Cap Malheureux,-19.9842,57.6142,79.29,78,92,3.0,MU,1643500589
360,Santo Ângelo,-28.2992,-54.2631,75.52,64,0,9.22,BR,1643500590
361,Ihlow,51.8833,13.3333,45.0,61,40,21.85,DE,1643500590
362,Grindavik,63.8424,-22.4338,36.07,80,75,13.8,IS,1643500590
363,Mana,5.6592,-53.7767,75.9,85,86,7.7,GF,1643500591
364,Sept-Îles,50.2001,-66.3821,7.05,61,100,8.01,CA,1643500591
365,Birao,10.2849,22.7882,63.64,17,44,6.67,CF,1643500592
366,Ahipara,-35.1667,173.1667,75.65,49,70,6.44,NZ,1643500592
367,Namtsy,62.7161,129.6658,-34.49,100,66,0.98,RU,1643500592
368,Port Macquarie,-31.4333,152.9167,81.9,63,91,4.32,AU,1643500593
369,Staryy Nadym,65.6118,72.6842,-8.91,95,92,9.57,RU,1643500598
370,Lucapa,-8.4192,20.7447,66.24,95,100,2.89,AO,1643500598
371,Östersund,63.1792,14.6357,25.25,100,20,12.66,SE,1643500599
372,Soria,41.6667,-2.6667,34.86,36,0,2.1,ES,1643500599
373,Damaturu,11.747,11.9608,60.4,18,97,9.1,NG,1643500599
374,Seguin,29.5688,-97.9647,62.58,24,46,7.63,US,1643500600
375,Kaitangata,-46.2817,169.8464,56.59,93,100,6.33,NZ,1643500600
376,Ponta do Sol,32.6667,-17.1,63.23,42,33,5.86,PT,1643500600
377,Ryōtsu-minato,38.0833,138.4333,33.76,61,95,13.24,JP,1643500601
378,Tobermory,45.2501,-81.6665,13.3,85,86,10.11,CA,1643500601
379,Saint John,45.2727,-66.0677,20.43,86,100,28.77,CA,1643500524
380,Ust'-Ishim,57.6935,71.1665,6.87,89,100,6.87,RU,1643500601
381,Tharād,24.3961,71.6267,55.18,36,0,1.21,IN,1643500602
382,Sal Rei,16.1833,-22.9167,68.56,72,100,18.01,CV,1643500602
383,Kuito,-12.3833,16.9333,59.97,93,100,5.88,AO,1643500603
384,Manono,-7.3,27.4167,68.99,97,100,3.6,CD,1643500603
385,Virginia Beach,36.8529,-75.978,29.1,53,39,8.01,US,1643500603
386,Pisticci,40.3906,16.5568,41.13,57,7,8.43,IT,1643500608
387,Taiobeiras,-15.8078,-42.2331,65.73,90,100,3.11,BR,1643500609
388,Macao,22.2006,113.5461,57.07,82,40,19.57,MO,1643500609
389,Parkes,-33.1333,148.1833,74.14,67,66,6.08,AU,1643500609
390,Tabuk,17.4189,121.4443,74.97,86,40,3.2,PH,1643500610
391,Usinsk,65.9939,57.5281,12.79,91,100,18.52,RU,1643500610
392,Dongsheng,39.8161,109.9776,16.14,50,63,17.47,CN,1643500610
393,Pārīchha,25.5167,78.75,52.18,46,0,5.5,IN,1643500611
394,Deming,32.2687,-107.7586,56.25,25,6,5.61,US,1643500611
395,Flin Flon,54.7682,-101.865,-0.56,71,40,3.44,CA,1643500611
396,Irbeyskoye,55.6428,95.4522,-15.88,99,71,2.82,RU,1643500612
397,Buraidah,26.326,43.975,50.45,38,4,15.23,SA,1643500612
398,Limbang,4.75,115.0,78.91,95,98,1.14,MY,1643500615
399,Maniitsoq,65.4167,-52.9,8.55,74,100,25.1,GL,1643500615
400,Auki,-8.7676,160.7034,83.84,77,99,8.28,SB,1643500616
401,Pisco,-13.7,-76.2167,71.65,73,0,17.27,PE,1643500495
402,La Asuncion,11.0333,-63.8628,80.33,74,96,12.66,VE,1643500616
403,Almora,29.6167,79.6667,37.44,67,0,2.26,IN,1643500617
404,Saint-Augustin,51.226,-58.6502,7.72,94,100,22.12,CA,1643500617
405,Varangaon,21.0167,75.9,59.04,29,2,2.95,IN,1643500617
406,Mujiayingzi,42.1167,118.7833,11.73,42,0,4.7,CN,1643500618
407,San Jerónimo,-11.9472,-75.2829,49.24,91,100,4.23,PE,1643500618
408,Graaff-Reinet,-32.2522,24.5308,60.93,83,0,2.28,ZA,1643500678
409,Ostrovnoy,68.0531,39.5131,17.42,90,84,15.41,RU,1643500679
410,Gal'bshtadt,53.2264,78.9845,1.42,86,73,11.36,RU,1643500679
411,Córdoba,-31.4135,-64.1811,74.25,64,20,6.91,AR,1643500679
412,North Augusta,33.5018,-81.9651,38.1,40,0,5.26,US,1643500500
413,Gravelbourg,49.8834,-106.5512,26.87,93,32,4.43,CA,1643500680
414,Itaituba,-4.2761,-55.9836,71.44,100,100,1.79,BR,1643500680
415,Port Said,31.2565,32.2841,53.58,71,20,2.3,EG,1643500683
416,Akureyri,65.6835,-18.0878,33.73,69,75,16.11,IS,1643500683
417,Samaná,19.2056,-69.3369,78.76,77,5,4.63,DO,1643500686
418,Taos,36.4072,-105.5731,49.6,35,0,1.99,US,1643500686
419,Mariehamn,60.0973,19.9348,37.26,100,100,4.61,AX,1643500687
420,Yulara,-25.2406,130.9889,76.84,88,100,14.97,AU,1643500597
421,Sokoni,-6.4333,39.55,79.72,76,99,10.58,TZ,1643500687
422,Orchard Homes,46.8633,-114.0484,38.28,60,22,1.99,US,1643500687
423,Omsukchan,62.5333,155.8,-6.43,98,100,5.26,RU,1643500688
424,Qaqortoq,60.7167,-46.0333,16.92,88,100,18.77,GL,1643500688
425,San Cristobal,7.7669,-72.225,75.38,79,47,3.49,VE,1643500688
426,Talnakh,69.4865,88.3972,-3.8,96,100,9.04,RU,1643500594
427,Kodinsk,58.6881,99.1844,-2.38,99,100,2.71,RU,1643500689
428,Sinnamary,5.3833,-52.95,76.17,86,86,8.39,GF,1643500689
429,Gander,48.9682,-54.5906,30.33,92,100,25.99,CA,1643500689
430,Tygda,53.1167,126.3333,-2.85,82,71,7.47,RU,1643500690
431,Taltal,-25.4,-70.4833,66.65,77,6,5.41,CL,1643500690
432,Urengoy,65.9667,78.3667,-13.22,99,99,7.52,RU,1643500690
433,Yazykovo,55.2199,56.1353,8.08,93,100,6.2,RU,1643500691
434,Aklavik,68.2191,-135.0107,-15.77,69,40,0.0,CA,1643500692
435,Wonthaggi,-38.6044,145.5913,77.05,86,98,13.04,AU,1643500693
436,Birobidzhan,48.8,132.95,-18.4,92,6,1.63,RU,1643500693
437,Varlamovo,53.1897,48.4226,19.51,96,98,3.53,RU,1643500693
438,Ati,13.2154,18.3353,62.08,14,34,11.63,TD,1643500694
439,Manakara,-22.1333,48.0167,74.53,84,51,5.35,MG,1643500694
440,Plérin,48.5425,-2.7798,47.97,96,100,5.99,FR,1643500694
441,Eirunepé,-6.6603,-69.8736,78.19,82,100,0.94,BR,1643500695
442,Merrill,45.1805,-89.6835,21.15,68,100,3.44,US,1643500695
443,Bondoukou,8.0333,-2.8,76.84,20,25,5.08,CI,1643500695
444,Barra Patuca,15.8,-84.2833,75.43,81,13,16.06,HN,1643500696
445,Maceió,-9.6658,-35.7353,78.24,83,75,5.75,BR,1643500696
446,Zaton,53.2936,83.8072,2.79,78,0,8.95,RU,1643500696
447,Río Gallegos,-51.6226,-69.2181,46.45,93,100,9.22,AR,1643500697
448,Riyadh,24.6877,46.7219,50.14,41,0,8.23,SA,1643500617
449,Salinas,36.6777,-121.6555,67.98,47,66,3.06,US,1643500659
450,Tabursuq,36.4569,9.2475,43.9,94,0,5.93,TN,1643500697
451,Carlisle,40.2015,-77.1889,21.16,31,30,5.99,US,1643500590
452,Taoudenni,22.6783,-3.9836,73.24,11,97,13.35,ML,1643500698
453,Muros,42.7762,-9.0603,52.84,78,15,4.74,ES,1643500698
454,Morros,-9.4467,-46.3003,69.93,89,100,3.51,BR,1643500703
455,Vidim,56.4088,103.1106,-17.12,100,100,2.95,RU,1643500703
456,Klyuchi,52.2667,79.1667,3.99,86,72,9.84,RU,1643500704
457,Tucumcari,35.1717,-103.725,52.02,15,0,6.82,US,1643500705
458,Katherine,-14.4667,132.2667,82.72,74,100,16.11,AU,1643500705
459,Ures,29.4333,-110.4,79.27,20,1,5.97,MX,1643500765
460,Cham,47.1821,8.4636,42.96,76,53,4.83,CH,1643500766
461,Stornoway,58.2093,-6.3865,40.03,81,100,1.01,GB,1643500766
462,Atambua,-9.1061,124.8925,75.92,89,99,6.67,ID,1643500766
463,Gobabis,-22.45,18.9667,69.35,72,73,13.24,NA,1643500767
464,Mersing,2.4312,103.8405,73.31,94,59,4.61,MY,1643500767
465,Berlevåg,70.8578,29.0864,20.89,75,93,1.9,NO,1643500767
466,Onguday,50.75,86.15,-10.46,98,38,2.59,RU,1643500768
467,Mossamedes,-15.1961,12.1522,70.84,76,100,6.04,AO,1643500768
468,Deep River,46.1001,-77.4995,-0.06,92,1,3.87,CA,1643500768
469,Verkhnyaya Inta,65.9811,60.3094,8.1,82,99,7.85,RU,1643500768
470,Narsaq,60.9167,-46.05,14.72,95,100,11.41,GL,1643500769
471,Cabedelo,-6.9811,-34.8339,77.67,80,74,9.19,BR,1643500769
472,Egvekinot,66.3167,-179.1667,-3.62,67,11,0.63,RU,1643500774
473,Hofn,64.2539,-15.2082,31.06,62,34,9.28,IS,1643500775
474,Kattivākkam,13.2167,80.3167,79.07,80,26,8.99,IN,1643500775
475,Havre-St-Pierre,50.2334,-63.5986,10.4,72,100,27.63,CA,1643500776
476,Menongue,-14.6585,17.691,63.28,97,100,8.99,AO,1643500776
477,Gwadar,25.1216,62.3254,70.11,74,0,8.08,PK,1643500777
478,Finnsnes,69.2296,17.9811,15.76,88,96,5.19,NO,1643500777
479,Camocim,-2.9022,-40.8411,76.46,87,100,8.21,BR,1643500778
480,Sarangani,5.4033,125.4636,80.55,76,79,6.76,PH,1643500778
481,Brookhaven,31.5791,-90.4407,43.25,55,0,4.7,US,1643500778
482,Jalu,29.0331,21.5482,53.56,40,18,16.89,LY,1643500779
483,Sur,22.5667,59.5289,69.91,51,5,1.32,OM,1643500779
484,Ikwiriri,-7.9562,38.9716,72.1,98,100,3.27,TZ,1643500785
485,Santa Helena de Goiás,-17.8136,-50.5969,70.86,92,100,6.44,BR,1643500773
486,Bintulu,3.1667,113.0333,77.41,94,20,0.0,MY,1643500785
487,Blenheim,-41.516,173.9528,82.0,57,11,7.0,NZ,1643500785
488,Maumere,-8.6199,122.2111,81.1,80,100,4.14,ID,1643500786
489,Sexsmith,55.35,-118.786,36.75,70,100,6.91,CA,1643500786
490,Masvingo,-20.0637,30.8277,66.52,91,100,3.76,ZW,1643500786
491,Charlestown,-32.95,151.6667,82.08,74,83,5.01,AU,1643500787
492,Imbituba,-28.24,-48.6703,70.83,84,98,6.04,BR,1643500787
493,Mongo,12.1844,18.693,65.5,15,16,6.44,TD,1643500787
494,Republic,37.12,-93.4802,50.92,61,2,8.66,US,1643500789
495,Fort Nelson,58.8053,-122.7002,6.39,78,100,9.22,CA,1643500789
496,Broome,42.2506,-75.833,10.02,74,99,5.01,US,1643500789
497,Ilo,-17.6394,-71.3375,68.23,77,61,1.03,PE,1643500592
498,Zhengjiatun,43.5064,123.5064,1.15,84,4,4.79,CN,1643500790
499,North Bend,43.4065,-124.2243,59.94,90,44,4.09,US,1643500790
500,Sioux Lookout,50.1001,-91.917,8.98,85,100,3.44,CA,1643500790
501,Solnechnyy,50.7214,136.6319,-10.73,89,74,0.96,RU,1643500791
502,Ilulissat,69.2167,-51.1,6.03,83,100,12.62,GL,1643500791
503,Deogarh,21.5333,84.7333,51.57,43,1,4.23,IN,1643500791
504,Albania,41.0,20.0,25.99,67,13,5.97,AL,1643500792
505,Hukuntsi,-24.0,21.75,71.73,71,32,15.7,BW,1643500792
506,Natal,-5.795,-35.2094,79.02,89,20,4.61,BR,1643500756
507,Anadyr,64.75,177.4833,-10.7,76,40,0.0,RU,1643500792
508,Oruzgan,32.8333,66.0,34.84,63,62,8.7,AF,1643500793
509,Lagos,6.5833,3.75,77.32,44,44,3.65,NG,1643500793
510,Manicoré,-5.8092,-61.3003,72.36,99,100,0.74,BR,1643500853
511,Namchi,27.1667,88.35,46.06,77,93,2.46,IN,1643500854
512,Paraíso,9.8383,-83.8656,66.42,94,42,4.07,CR,1643500854
513,Boca do Acre,-8.7522,-67.3978,73.78,97,100,0.47,BR,1643500855
514,Örnsköldsvik,63.2909,18.7153,30.02,100,100,16.11,SE,1643500855
515,China,25.7,-99.2333,59.86,32,3,9.46,MX,1643500855
516,Kita,13.0349,-9.4895,75.99,18,11,4.56,ML,1643500856
517,Penzance,50.1186,-5.5371,47.77,82,58,7.63,GB,1643500856
518,Oodweyne,9.4092,45.064,61.3,26,38,10.71,SO,1643500856
519,Kieta,-6.2167,155.6333,80.1,87,100,7.56,PG,1643500835
520,Van,38.4924,43.3831,12.47,89,72,8.77,TR,1643500857
521,Odesskoye,54.2111,72.9651,-5.13,92,97,7.27,RU,1643500857
522,Vila Franca do Campo,37.7167,-25.4333,58.19,72,68,9.69,PT,1643500857
523,Bacolod City,10.6667,122.95,80.08,80,21,3.15,PH,1643500831
524,Ranong,9.9658,98.6348,76.64,84,49,2.51,TH,1643500858
525,Tamworth,52.634,-1.6959,44.37,83,38,3.0,GB,1643500858
526,Kindu,-2.95,25.95,71.85,86,91,1.97,CD,1643500859
527,Bilma,18.6853,12.9164,57.9,20,2,13.6,NE,1643500859
528,Palmer,42.1584,-72.3287,15.49,76,100,8.99,US,1643500859
529,La Libertad,-2.2333,-80.9,75.29,82,100,7.25,EC,1643500860
530,De-Kastri,51.4667,140.7833,-10.34,97,81,7.38,RU,1643500860
531,Karratha,-20.7377,116.8463,82.11,59,90,15.64,AU,1643500861
532,Muravlenko,63.7898,74.523,-5.22,98,98,8.48,RU,1643500861
533,Sandy Bay,-42.913,147.3532,76.05,57,75,3.0,AU,1643500862
534,Paka,4.6374,103.4368,74.35,86,37,3.27,MY,1643500862
535,Kaka,37.3482,59.6143,38.64,71,51,1.57,TM,1643500862
536,Vaitape,-16.5167,-151.75,80.58,72,43,9.04,PF,1643500863
537,Santa Cruz de la Sierra,-17.8,-63.1667,79.79,57,89,5.41,BO,1643500863
538,Kailua,21.4022,-157.7394,81.07,64,4,8.01,US,1643500863
539,Mandalgovi,45.7625,106.2708,-0.65,85,100,19.3,MN,1643500864
540,Bell Ville,-32.6259,-62.6887,77.67,48,0,8.77,AR,1643500864
541,Piaçabuçu,-10.4056,-36.4344,78.37,66,100,8.79,BR,1643500864
542,Båtsfjord,70.6345,29.7185,14.34,87,93,2.77,NO,1643500865
543,Birjand,32.8663,59.2211,40.95,66,6,4.21,IR,1643500865
544,Ambilobe,-13.2,49.05,74.3,92,84,2.04,MG,1643500865
545,Sarai,53.7458,41.0213,25.95,97,100,4.94,RU,1643500866
546,Calvià,39.5657,2.5062,46.08,73,0,2.84,ES,1643500866
547,Grand Gaube,-20.0064,57.6608,76.37,78,94,3.0,MU,1643500866
548,Nadym,65.5333,72.5167,-8.86,95,90,9.66,RU,1643500867
549,Kalispell,48.1958,-114.3129,28.78,89,67,1.79,US,1643500803
550,Olinda,-8.0089,-34.8553,76.57,80,76,4.5,BR,1643500867
551,Kaduqli,11.0167,29.7167,66.74,14,2,11.23,SD,1643500868
552,Puerto Padre,21.195,-76.6028,68.27,76,81,15.77,CU,1643500868
553,Holovyne,50.4712,28.8253,25.93,88,99,19.44,UA,1643500868
554,Miyako,39.6367,141.9525,29.37,45,5,8.14,JP,1643500869
555,Beira,-19.8436,34.8389,76.95,82,53,4.29,MZ,1643500869
556,Thanh Hoa,19.8,105.7667,55.62,80,100,6.78,VN,1643500804
557,Nelspruit,-25.4745,30.9703,67.95,95,100,0.92,ZA,1643500870
558,Burns Lake,54.2331,-125.7533,32.61,94,76,3.96,CA,1643500870
559,Manyana,-23.4,21.7167,71.89,72,84,14.63,BW,1643500870
560,Ngunguru,-35.6167,174.5,72.16,64,40,11.16,NZ,1643500871
561,Lumby,50.2498,-118.969,32.04,95,100,1.1,CA,1643500931
562,Anloga,5.7947,0.8973,79.59,84,90,4.85,GH,1643500932
563,Águas Vermelhas,-15.7472,-41.46,65.57,95,14,2.46,BR,1643500932
